Ground,City,Latitude,Longitude,Matches
MCG,Melbourne,-37.8199,144.9834,116
SCG,Sydney,-33.8916,151.2249,112
Gabba,Brisbane,-27.4858,153.0381,67
Adelaide Oval,Adelaide,-34.9154,138.5961,81
Perth Stadium,Perth,-31.9505,115.8613,29
Bellerive Oval,Hobart,-42.8796,147.3272,13
Manuka Oval,Canberra,-35.3349,149.1537,8
Junction Oval,Melbourne,-37.8497,144.983,6
Cazalys Stadium,Cairns,-16.9203,145.7705,5
Kardinia Park,Geelong,-38.1576,144.3548,4
